[{"business_id":"tCbdrRPZA0oiIYSmHG3J0w","name":"Flying Elephants at PDX","address":"7000 NE Airport Way","city":"Portland","state":"OR","postal_code":"97218","latitude":45.5889058992,"longitude":-122.5933307507,"stars":4.0,"review_count":126,"is_open":1,"attributes":{"RestaurantsTakeOut":"True","RestaurantsAttire":"u'casual'","GoodForKids":"True","BikeParking":"False","OutdoorSeating":"False","Ambience":"{'romantic': False, 'intimate': False, 'touristy': False, 'hipster': False, 'divey': False, 'classy': False, 'trendy': False, 'upscale': False, 'casual': True}","Caters":"True","RestaurantsReservations":"False","RestaurantsDelivery":"False","HasTV":"False","RestaurantsGoodForGroups":"False","BusinessAcceptsCreditCards":"True","NoiseLevel":"u'average'","ByAppointmentOnly":"False","RestaurantsPriceRange2":"2","WiFi":"u'free'","BusinessParking":"{'garage': True, 'street': False, 'validated': False, 'lot': False, 'valet': False}","Alcohol":"u'beer_and_wine'","GoodForMeal":"{'dessert': False, 'latenight': False, 'lunch': True, 'dinner': False, 'brunch': False, 'breakfast': True}"},"categories":"Salad, Soup, Sandwiches, Delis, Restaurants, Cafes, Vegetarian","hours":{"Monday":"5:0-18:0","Tuesday":"5:0-17:0","Wednesday":"5:0-18:0","Thursday":"5:0-18:0","Friday":"5:0-18:0","Saturday":"5:0-18:0","Sunday":"5:0-18:0"}},{"business_id":"GfWJ19Js7wX9rwaHQ7KbGw","name":"Everything POP Shopping & Dining","address":"1050 Century Dr","city":"Orlando","state":"FL","postal_code":"32830","latitude":28.3504984,"longitude":-81.542819,"stars":3.0,"review_count":7,"is_open":1,"attributes":{"HasTV":"False","Caters":"False","BusinessParking":"{'garage': False, 'street': False, 'validated': False, 'lot': False, 'valet': False}","BusinessAcceptsCreditCards":"True","RestaurantsPriceRange2":"2","BikeParking":"True","RestaurantsAttire":"u'casual'","WiFi":"u'free'","RestaurantsGoodForGroups":"True","RestaurantsReservations":"False","GoodForKids":"True","RestaurantsTakeOut":"None","RestaurantsDelivery":"None"},"categories":"Restaurants, American (New), Food Court, Flowers & Gifts, Hotels & Travel, Gift Shops, Resorts, Shopping","hours":{"Monday":"0:0-0:0","Tuesday":"7:0-22:0","Wednesday":"7:0-22:0","Thursday":"7:0-22:0","Friday":"7:0-22:0","Saturday":"7:0-22:0","Sunday":"7:0-22:0"}},{"business_id":"j68RDnvOaYEwGcY9cTEHpA","name":"Pittock Mansion","address":"3229 NW Pittock Dr","city":"Portland","state":"OR","postal_code":"97210","latitude":45.5252593,"longitude":-122.7162265,"stars":4.5,"review_count":406,"is_open":1,"attributes":{"BusinessAcceptsCreditCards":"True","GoodForKids":"True","ByAppointmentOnly":"False","RestaurantsAttire":"u'casual'"},"categories":"Tours, Museums, Architectural Tours, Venues & Event Spaces, Landmarks & Historical Buildings, Hotels & Travel, Arts & Entertainment, Community Service\/Non-Profit, Local Services, Event Planning & Services, Public Services & Government, Historical Tours","hours":{"Monday":"0:0-0:0","Thursday":"10:0-16:0","Friday":"10:0-16:0","Saturday":"10:0-16:0","Sunday":"10:0-16:0"}},{"business_id":"jGennaZUr2MsJyRhijNBfA","name":"Legal Sea Foods","address":"1 Harborside Dr","city":"Boston","state":"MA","postal_code":"02128","latitude":42.3634422,"longitude":-71.0257812,"stars":3.5,"review_count":856,"is_open":1,"attributes":{"NoiseLevel":"u'average'","BikeParking":"False","RestaurantsAttire":"u'casual'","BusinessAcceptsCreditCards":"True","BusinessParking":"{'garage': True, 'street': False, 'validated': False, 'lot': False, 'valet': False}","RestaurantsReservations":"False","GoodForKids":"True","RestaurantsTakeOut":"True","Caters":"False","WiFi":"u'free'","RestaurantsDelivery":"False","HasTV":"True","RestaurantsPriceRange2":"2","Alcohol":"u'full_bar'","Music":"{'dj': False, 'background_music': False, 'no_music': False, 'jukebox': False, 'live': False, 'video': False, 'karaoke': False}","BusinessAcceptsBitcoin":"False","GoodForDancing":"False","DogsAllowed":"False","BestNights":"{'monday': False, 'tuesday': False, 'friday': False, 'wednesday': False, 'thursday': False, 'sunday': False, 'saturday': False}","RestaurantsGoodForGroups":"False","OutdoorSeating":"False","HappyHour":"False","RestaurantsTableService":"True","GoodForMeal":"{'dessert': None, 'latenight': False, 'lunch': True, 'dinner': True, 'brunch': False, 'breakfast': None}","WheelchairAccessible":"True","Ambience":"{'touristy': None, 'hipster': False, 'romantic': False, 'divey': False, 'intimate': False, 'trendy': False, 'upscale': False, 'classy': True, 'casual': True}"},"categories":"Sandwiches, Food, Restaurants, Breakfast & Brunch, Seafood, Italian, Beer, Wine & Spirits, Cocktail Bars, Gluten-Free, Nightlife, Bars, Salad","hours":{"Monday":"6:0-21:0","Tuesday":"6:0-21:0","Wednesday":"6:0-21:0","Thursday":"6:0-21:0","Friday":"6:0-21:0","Saturday":"6:0-21:0","Sunday":"6:0-21:0"}},{"business_id":"Q2vefh0tGhtCGQDK1FI7cw","name":"Piece of Cake","address":"3215 Roswell Rd NE","city":"Atlanta","state":"GA","postal_code":"30305","latitude":33.8428749,"longitude":-84.3785385,"stars":4.0,"review_count":231,"is_open":1,"attributes":{"BikeParking":"True","BusinessParking":"{'garage': False, 'street': False, 'validated': False, 'lot': True, 'valet': False}","Caters":"True","RestaurantsPriceRange2":"2","BusinessAcceptsCreditCards":"True","RestaurantsTakeOut":"True","RestaurantsDelivery":"True","HappyHour":"False"},"categories":"Restaurants, Patisserie\/Cake Shop, Desserts, Food, Cupcakes, Bakeries","hours":{"Monday":"0:0-0:0","Tuesday":"10:0-17:0","Wednesday":"10:0-17:0","Thursday":"10:0-17:0","Friday":"10:0-17:0","Saturday":"10:0-17:0","Sunday":"12:0-17:0"}},{"business_id":"EGZ0fhB9k0ZlI5sHda4vFw","name":"Andy's Frozen Custard","address":"5381 International Dr","city":"Orlando","state":"FL","postal_code":"32819","latitude":28.4632778,"longitude":-81.4511805,"stars":4.5,"review_count":36,"is_open":0,"attributes":{"WiFi":"u'no'","BusinessParking":"{'garage': False, 'street': False, 'validated': False, 'lot': True, 'valet': False}","BikeParking":"True","Caters":"True","WheelchairAccessible":"True","RestaurantsPriceRange2":"1","RestaurantsTakeOut":"True","BusinessAcceptsCreditCards":"True"},"categories":"Food, Ice Cream & Frozen Yogurt, Restaurants, Breakfast & Brunch, Desserts","hours":{"Monday":"11:0-23:0","Tuesday":"11:0-23:0","Wednesday":"11:0-23:0","Thursday":"11:0-23:0","Friday":"11:0-23:30","Saturday":"11:0-23:30","Sunday":"11:0-23:0"}},{"business_id":"WuoNSCjFBH4OQTSNGc4l6w","name":"Toscana European Day Spa & Salon","address":"231 Newbury St","city":"Boston","state":"MA","postal_code":"02116","latitude":42.3500045,"longitude":-71.0819309,"stars":4.0,"review_count":138,"is_open":1,"attributes":{"ByAppointmentOnly":"False","BusinessParking":"{'garage': False, 'street': True, 'validated': False, 'lot': False, 'valet': False}","BusinessAcceptsCreditCards":"True","BikeParking":"True","GoodForKids":"False","RestaurantsPriceRange2":"2"},"categories":"Beauty & Spas, Hair Salons, Active Life, Day Spas","hours":{"Tuesday":"10:0-18:0","Wednesday":"10:0-20:0","Thursday":"10:0-20:0","Friday":"10:0-20:0","Saturday":"9:0-18:0","Sunday":"12:0-17:0"}},{"business_id":"KUGRFwI1V_X8nd5Z7g66eg","name":"Coolidge Hardware","address":"622 Mount Auburn St","city":"Watertown","state":"MA","postal_code":"02472","latitude":42.3713908,"longitude":-71.1581733,"stars":4.5,"review_count":19,"is_open":1,"attributes":{"RestaurantsPriceRange2":"2","BusinessAcceptsCreditCards":"True","BusinessParking":"{'garage': False, 'street': True, 'validated': False, 'lot': False, 'valet': False}","BikeParking":"True"},"categories":"Home & Garden, Hardware Stores, Shopping","hours":{"Monday":"7:30-17:0","Tuesday":"7:30-17:0","Wednesday":"7:30-17:0","Thursday":"7:30-17:0","Friday":"7:30-17:0","Saturday":"7:30-17:0"}}]